- name: BJSS
  latitude: 53.797247
  longitude: -1.554844
  radius: 40
  icon: mdi:office-building

- name: Leeds Station
  latitude:  53.795034
  longitude: -1.547683
  radius: 150
  icon: mdi:train  
  
- name: Shipley Station
  latitude: 53.8337072
  longitude: -1.7734238
  radius: 100
  icon: mdi:train

- name: Home
  latitude: 53.839690
  longitude: -1.778373
  radius: 25
  icon: mdi:home
  
- name: AD Work
  latitude: 53.792375
  longitude: -1.753296
  radius: 100
  icon: mdi:office-building